{"ast":null,"code":"// 지역별 좌표 데이터\nexport const regionCoordinates = {\n  '서울': {\n    lat: 37.5665,\n    lng: 126.9780,\n    name: '서울특별시'\n  },\n  '부산': {\n    lat: 35.1796,\n    lng: 129.0756,\n    name: '부산광역시'\n  },\n  '대구': {\n    lat: 35.8714,\n    lng: 128.6014,\n    name: '대구광역시'\n  },\n  '인천': {\n    lat: 37.4563,\n    lng: 126.7052,\n    name: '인천광역시'\n  },\n  '광주': {\n    lat: 35.1595,\n    lng: 126.8526,\n    name: '광주광역시'\n  },\n  '대전': {\n    lat: 36.3504,\n    lng: 127.3845,\n    name: '대전광역시'\n  },\n  '울산': {\n    lat: 35.5384,\n    lng: 129.3114,\n    name: '울산광역시'\n  },\n  '세종': {\n    lat: 36.4800,\n    lng: 127.2890,\n    name: '세종특별자치시'\n  },\n  '경기': {\n    lat: 37.4138,\n    lng: 127.5183,\n    name: '경기도'\n  },\n  '강원': {\n    lat: 37.8228,\n    lng: 128.1555,\n    name: '강원특별자치도'\n  },\n  '충북': {\n    lat: 36.8000,\n    lng: 127.7000,\n    name: '충청북도'\n  },\n  '충남': {\n    lat: 36.5184,\n    lng: 126.8000,\n    name: '충청남도'\n  },\n  '전북': {\n    lat: 35.7175,\n    lng: 127.1530,\n    name: '전북특별자치도'\n  },\n  '전남': {\n    lat: 34.8679,\n    lng: 126.9910,\n    name: '전라남도'\n  },\n  '경북': {\n    lat: 36.4919,\n    lng: 128.8889,\n    name: '경상북도'\n  },\n  '경남': {\n    lat: 35.4606,\n    lng: 128.2132,\n    name: '경상남도'\n  },\n  '제주': {\n    lat: 33.4890,\n    lng: 126.4983,\n    name: '제주특별자치도'\n  }\n};\n\n// 더미 로드킬 데이터 (지역별 동물별 발생 건수)\nexport const roadkillData = {\n  '서울': [{\n    animal: '고양이',\n    count: 145\n  }, {\n    animal: '개',\n    count: 89\n  }, {\n    animal: '너구리',\n    count: 34\n  }, {\n    animal: '까치',\n    count: 67\n  }, {\n    animal: '비둘기',\n    count: 123\n  }],\n  '부산': [{\n    animal: '고中含',\n    count: 98\n  }, {\n    animal: '개',\n    count: 76\n  }, {\n    animal: '너구리',\n    count: 45\n  }, {\n    animal: '까치',\n    count: 54\n  }, {\n    animal: '갈매기',\n    count: 112\n  }],\n  '대구': [{\n    animal: '고양이',\n    count: 87\n  }, {\n    animal: '개',\n    count: 63\n  }, {\n    animal: '너구리',\n    count: 41\n  }, {\n    animal: '까치',\n    count: 58\n  }, {\n    animal: '참새',\n    count: 72\n  }],\n  '인천': [{\n    animal: '고양이',\n    count: 102\n  }, {\n    animal: '개',\n    count: 71\n  }, {\n    animal: '너구리',\n    count: 38\n  }, {\n    animal: '갈매기',\n    count: 95\n  }, {\n    animal: '비둘기',\n    count: 81\n  }],\n  '광주': [{\n    animal: '고양이',\n    count: 78\n  }, {\n    animal: '개',\n    count: 59\n  }, {\n    animal: '너구리',\n    count: 33\n  }, {\n    animal: '까치',\n    count: 48\n  }, {\n    animal: '참새',\n    count: 65\n  }],\n  '대전': [{\n    animal: '고양이',\n    count: 91\n  }, {\n    animal: '개',\n    count: 68\n  }, {\n    animal: '너구리',\n    count: 52\n  }, {\n    animal: '고라니',\n    count: 29\n  }, {\n    animal: '까치',\n    count: 55\n  }],\n  '울산': [{\n    animal: '고양이',\n    count: 73\n  }, {\n    animal: '개',\n    count: 54\n  }, {\n    animal: '너구리',\n    count: 47\n  }, {\n    animal: '고라니',\n    count: 38\n  }, {\n    animal: '까치',\n    count: 42\n  }],\n  '세종': [{\n    animal: '고양이',\n    count: 45\n  }, {\n    animal: '개',\n    count: 38\n  }, {\n    animal: '너구리',\n    count: 61\n  }, {\n    animal: '고라니',\n    count: 73\n  }, {\n    animal: '까치',\n    count: 36\n  }],\n  '경기': [{\n    animal: '고양이',\n    count: 234\n  }, {\n    animal: '개',\n    count: 187\n  }, {\n    animal: '너구리',\n    count: 156\n  }, {\n    animal: '고라니',\n    count: 198\n  }, {\n    animal: '족제비',\n    count: 89\n  }],\n  '강원': [{\n    animal: '고라니',\n    count: 312\n  }, {\n    animal: '너구리',\n    count: 198\n  }, {\n    animal: '멧돼지',\n    count: 87\n  }, {\n    animal: '노루',\n    count: 145\n  }, {\n    animal: '오소리',\n    count: 76\n  }],\n  '충북': [{\n    animal: '고라니',\n    count: 245\n  }, {\n    animal: '너구리',\n    count: 167\n  }, {\n    animal: '고양이',\n    count: 98\n  }, {\n    animal: '개',\n    count: 76\n  }, {\n    animal: '족제비',\n    count: 54\n  }],\n  '충남': [{\n    animal: '고라니',\n    count: 289\n  }, {\n    animal: '너구리',\n    count: 178\n  }, {\n    animal: '고양이',\n    count: 112\n  }, {\n    animal: '개',\n    count: 89\n  }, {\n    animal: '오소리',\n    count: 67\n  }],\n  '전북': [{\n    animal: '고라니',\n    count: 267\n  }, {\n    animal: '너구리',\n    count: 189\n  }, {\n    animal: '멧돼지',\n    count: 98\n  }, {\n    animal: '고양이',\n    count: 87\n  }, {\n    animal: '개',\n    count: 73\n  }],\n  '전남': [{\n    animal: '고라니',\n    count: 298\n  }, {\n    animal: '너구리',\n    count: 201\n  }, {\n    animal: '고양이',\n    count: 134\n  }, {\n    animal: '개',\n    count: 98\n  }, {\n    animal: '오소리',\n    count: 81\n  }],\n  '경북': [{\n    animal: '고라니',\n    count: 334\n  }, {\n    animal: '너구리',\n    count: 223\n  }, {\n    animal: '멧돼지',\n    count: 112\n  }, {\n    animal: '노루',\n    count: 156\n  }, {\n    animal: '오소리',\n    count: 94\n  }],\n  '경남': [{\n    animal: '고라니',\n    count: 278\n  }, {\n    animal: '너구리',\n    count: 198\n  }, {\n    animal: '멧돼지',\n    count: 134\n  }, {\n    animal: '고양이',\n    count: 123\n  }, {\n    animal: '개',\n    count: 98\n  }],\n  '제주': [{\n    animal: '고양이',\n    count: 156\n  }, {\n    animal: '개',\n    count: 89\n  }, {\n    animal: '너구리',\n    count: 67\n  }, {\n    animal: '까치',\n    count: 78\n  }, {\n    animal: '참새',\n    count: 94\n  }]\n};","map":{"version":3,"names":["regionCoordinates","lat","lng","name","roadkillData","animal","count"],"sources":["/Users/dawn/Documents/SFS/sfs/src/constants/regionData.js"],"sourcesContent":["// 지역별 좌표 데이터\nexport const regionCoordinates = {\n  '서울': { lat: 37.5665, lng: 126.9780, name: '서울특별시' },\n  '부산': { lat: 35.1796, lng: 129.0756, name: '부산광역시' },\n  '대구': { lat: 35.8714, lng: 128.6014, name: '대구광역시' },\n  '인천': { lat: 37.4563, lng: 126.7052, name: '인천광역시' },\n  '광주': { lat: 35.1595, lng: 126.8526, name: '광주광역시' },\n  '대전': { lat: 36.3504, lng: 127.3845, name: '대전광역시' },\n  '울산': { lat: 35.5384, lng: 129.3114, name: '울산광역시' },\n  '세종': { lat: 36.4800, lng: 127.2890, name: '세종특별자치시' },\n  '경기': { lat: 37.4138, lng: 127.5183, name: '경기도' },\n  '강원': { lat: 37.8228, lng: 128.1555, name: '강원특별자치도' },\n  '충북': { lat: 36.8000, lng: 127.7000, name: '충청북도' },\n  '충남': { lat: 36.5184, lng: 126.8000, name: '충청남도' },\n  '전북': { lat: 35.7175, lng: 127.1530, name: '전북특별자치도' },\n  '전남': { lat: 34.8679, lng: 126.9910, name: '전라남도' },\n  '경북': { lat: 36.4919, lng: 128.8889, name: '경상북도' },\n  '경남': { lat: 35.4606, lng: 128.2132, name: '경상남도' },\n  '제주': { lat: 33.4890, lng: 126.4983, name: '제주특별자치도' }\n};\n\n// 더미 로드킬 데이터 (지역별 동물별 발생 건수)\nexport const roadkillData = {\n  '서울': [\n    { animal: '고양이', count: 145 },\n    { animal: '개', count: 89 },\n    { animal: '너구리', count: 34 },\n    { animal: '까치', count: 67 },\n    { animal: '비둘기', count: 123 }\n  ],\n  '부산': [\n    { animal: '고中含', count: 98 },\n    { animal: '개', count: 76 },\n    { animal: '너구리', count: 45 },\n    { animal: '까치', count: 54 },\n    { animal: '갈매기', count: 112 }\n  ],\n  '대구': [\n    { animal: '고양이', count: 87 },\n    { animal: '개', count: 63 },\n    { animal: '너구리', count: 41 },\n    { animal: '까치', count: 58 },\n    { animal: '참새', count: 72 }\n  ],\n  '인천': [\n    { animal: '고양이', count: 102 },\n    { animal: '개', count: 71 },\n    { animal: '너구리', count: 38 },\n    { animal: '갈매기', count: 95 },\n    { animal: '비둘기', count: 81 }\n  ],\n  '광주': [\n    { animal: '고양이', count: 78 },\n    { animal: '개', count: 59 },\n    { animal: '너구리', count: 33 },\n    { animal: '까치', count: 48 },\n    { animal: '참새', count: 65 }\n  ],\n  '대전': [\n    { animal: '고양이', count: 91 },\n    { animal: '개', count: 68 },\n    { animal: '너구리', count: 52 },\n    { animal: '고라니', count: 29 },\n    { animal: '까치', count: 55 }\n  ],\n  '울산': [\n    { animal: '고양이', count: 73 },\n    { animal: '개', count: 54 },\n    { animal: '너구리', count: 47 },\n    { animal: '고라니', count: 38 },\n    { animal: '까치', count: 42 }\n  ],\n  '세종': [\n    { animal: '고양이', count: 45 },\n    { animal: '개', count: 38 },\n    { animal: '너구리', count: 61 },\n    { animal: '고라니', count: 73 },\n    { animal: '까치', count: 36 }\n  ],\n  '경기': [\n    { animal: '고양이', count: 234 },\n    { animal: '개', count: 187 },\n    { animal: '너구리', count: 156 },\n    { animal: '고라니', count: 198 },\n    { animal: '족제비', count: 89 }\n  ],\n  '강원': [\n    { animal: '고라니', count: 312 },\n    { animal: '너구리', count: 198 },\n    { animal: '멧돼지', count: 87 },\n    { animal: '노루', count: 145 },\n    { animal: '오소리', count: 76 }\n  ],\n  '충북': [\n    { animal: '고라니', count: 245 },\n    { animal: '너구리', count: 167 },\n    { animal: '고양이', count: 98 },\n    { animal: '개', count: 76 },\n    { animal: '족제비', count: 54 }\n  ],\n  '충남': [\n    { animal: '고라니', count: 289 },\n    { animal: '너구리', count: 178 },\n    { animal: '고양이', count: 112 },\n    { animal: '개', count: 89 },\n    { animal: '오소리', count: 67 }\n  ],\n  '전북': [\n    { animal: '고라니', count: 267 },\n    { animal: '너구리', count: 189 },\n    { animal: '멧돼지', count: 98 },\n    { animal: '고양이', count: 87 },\n    { animal: '개', count: 73 }\n  ],\n  '전남': [\n    { animal: '고라니', count: 298 },\n    { animal: '너구리', count: 201 },\n    { animal: '고양이', count: 134 },\n    { animal: '개', count: 98 },\n    { animal: '오소리', count: 81 }\n  ],\n  '경북': [\n    { animal: '고라니', count: 334 },\n    { animal: '너구리', count: 223 },\n    { animal: '멧돼지', count: 112 },\n    { animal: '노루', count: 156 },\n    { animal: '오소리', count: 94 }\n  ],\n  '경남': [\n    { animal: '고라니', count: 278 },\n    { animal: '너구리', count: 198 },\n    { animal: '멧돼지', count: 134 },\n    { animal: '고양이', count: 123 },\n    { animal: '개', count: 98 }\n  ],\n  '제주': [\n    { animal: '고양이', count: 156 },\n    { animal: '개', count: 89 },\n    { animal: '너구리', count: 67 },\n    { animal: '까치', count: 78 },\n    { animal: '참새', count: 94 }\n  ]\n};\n"],"mappings":"AAAA;AACA,OAAO,MAAMA,iBAAiB,GAAG;EAC/B,IAAI,EAAE;IAAEC,GAAG,EAAE,OAAO;IAAEC,GAAG,EAAE,QAAQ;IAAEC,IAAI,EAAE;EAAQ,CAAC;EACpD,IAAI,EAAE;IAAEF,GAAG,EAAE,OAAO;IAAEC,GAAG,EAAE,QAAQ;IAAEC,IAAI,EAAE;EAAQ,CAAC;EACpD,IAAI,EAAE;IAAEF,GAAG,EAAE,OAAO;IAAEC,GAAG,EAAE,QAAQ;IAAEC,IAAI,EAAE;EAAQ,CAAC;EACpD,IAAI,EAAE;IAAEF,GAAG,EAAE,OAAO;IAAEC,GAAG,EAAE,QAAQ;IAAEC,IAAI,EAAE;EAAQ,CAAC;EACpD,IAAI,EAAE;IAAEF,GAAG,EAAE,OAAO;IAAEC,GAAG,EAAE,QAAQ;IAAEC,IAAI,EAAE;EAAQ,CAAC;EACpD,IAAI,EAAE;IAAEF,GAAG,EAAE,OAAO;IAAEC,GAAG,EAAE,QAAQ;IAAEC,IAAI,EAAE;EAAQ,CAAC;EACpD,IAAI,EAAE;IAAEF,GAAG,EAAE,OAAO;IAAEC,GAAG,EAAE,QAAQ;IAAEC,IAAI,EAAE;EAAQ,CAAC;EACpD,IAAI,EAAE;IAAEF,GAAG,EAAE,OAAO;IAAEC,GAAG,EAAE,QAAQ;IAAEC,IAAI,EAAE;EAAU,CAAC;EACtD,IAAI,EAAE;IAAEF,GAAG,EAAE,OAAO;IAAEC,GAAG,EAAE,QAAQ;IAAEC,IAAI,EAAE;EAAM,CAAC;EAClD,IAAI,EAAE;IAAEF,GAAG,EAAE,OAAO;IAAEC,GAAG,EAAE,QAAQ;IAAEC,IAAI,EAAE;EAAU,CAAC;EACtD,IAAI,EAAE;IAAEF,GAAG,EAAE,OAAO;IAAEC,GAAG,EAAE,QAAQ;IAAEC,IAAI,EAAE;EAAO,CAAC;EACnD,IAAI,EAAE;IAAEF,GAAG,EAAE,OAAO;IAAEC,GAAG,EAAE,QAAQ;IAAEC,IAAI,EAAE;EAAO,CAAC;EACnD,IAAI,EAAE;IAAEF,GAAG,EAAE,OAAO;IAAEC,GAAG,EAAE,QAAQ;IAAEC,IAAI,EAAE;EAAU,CAAC;EACtD,IAAI,EAAE;IAAEF,GAAG,EAAE,OAAO;IAAEC,GAAG,EAAE,QAAQ;IAAEC,IAAI,EAAE;EAAO,CAAC;EACnD,IAAI,EAAE;IAAEF,GAAG,EAAE,OAAO;IAAEC,GAAG,EAAE,QAAQ;IAAEC,IAAI,EAAE;EAAO,CAAC;EACnD,IAAI,EAAE;IAAEF,GAAG,EAAE,OAAO;IAAEC,GAAG,EAAE,QAAQ;IAAEC,IAAI,EAAE;EAAO,CAAC;EACnD,IAAI,EAAE;IAAEF,GAAG,EAAE,OAAO;IAAEC,GAAG,EAAE,QAAQ;IAAEC,IAAI,EAAE;EAAU;AACvD,CAAC;;AAED;AACA,OAAO,MAAMC,YAAY,GAAG;EAC1B,IAAI,EAAE,CACJ;IAAEC,MAAM,EAAE,KAAK;IAAEC,KAAK,EAAE;EAAI,CAAC,EAC7B;IAAED,MAAM,EAAE,GAAG;IAAEC,KAAK,EAAE;EAAG,CAAC,EAC1B;IAAED,MAAM,EAAE,KAAK;IAAEC,KAAK,EAAE;EAAG,CAAC,EAC5B;IAAED,MAAM,EAAE,IAAI;IAAEC,KAAK,EAAE;EAAG,CAAC,EAC3B;IAAED,MAAM,EAAE,KAAK;IAAEC,KAAK,EAAE;EAAI,CAAC,CAC9B;EACD,IAAI,EAAE,CACJ;IAAED,MAAM,EAAE,KAAK;IAAEC,KAAK,EAAE;EAAG,CAAC,EAC5B;IAAED,MAAM,EAAE,GAAG;IAAEC,KAAK,EAAE;EAAG,CAAC,EAC1B;IAAED,MAAM,EAAE,KAAK;IAAEC,KAAK,EAAE;EAAG,CAAC,EAC5B;IAAED,MAAM,EAAE,IAAI;IAAEC,KAAK,EAAE;EAAG,CAAC,EAC3B;IAAED,MAAM,EAAE,KAAK;IAAEC,KAAK,EAAE;EAAI,CAAC,CAC9B;EACD,IAAI,EAAE,CACJ;IAAED,MAAM,EAAE,KAAK;IAAEC,KAAK,EAAE;EAAG,CAAC,EAC5B;IAAED,MAAM,EAAE,GAAG;IAAEC,KAAK,EAAE;EAAG,CAAC,EAC1B;IAAED,MAAM,EAAE,KAAK;IAAEC,KAAK,EAAE;EAAG,CAAC,EAC5B;IAAED,MAAM,EAAE,IAAI;IAAEC,KAAK,EAAE;EAAG,CAAC,EAC3B;IAAED,MAAM,EAAE,IAAI;IAAEC,KAAK,EAAE;EAAG,CAAC,CAC5B;EACD,IAAI,EAAE,CACJ;IAAED,MAAM,EAAE,KAAK;IAAEC,KAAK,EAAE;EAAI,CAAC,EAC7B;IAAED,MAAM,EAAE,GAAG;IAAEC,KAAK,EAAE;EAAG,CAAC,EAC1B;IAAED,MAAM,EAAE,KAAK;IAAEC,KAAK,EAAE;EAAG,CAAC,EAC5B;IAAED,MAAM,EAAE,KAAK;IAAEC,KAAK,EAAE;EAAG,CAAC,EAC5B;IAAED,MAAM,EAAE,KAAK;IAAEC,KAAK,EAAE;EAAG,CAAC,CAC7B;EACD,IAAI,EAAE,CACJ;IAAED,MAAM,EAAE,KAAK;IAAEC,KAAK,EAAE;EAAG,CAAC,EAC5B;IAAED,MAAM,EAAE,GAAG;IAAEC,KAAK,EAAE;EAAG,CAAC,EAC1B;IAAED,MAAM,EAAE,KAAK;IAAEC,KAAK,EAAE;EAAG,CAAC,EAC5B;IAAED,MAAM,EAAE,IAAI;IAAEC,KAAK,EAAE;EAAG,CAAC,EAC3B;IAAED,MAAM,EAAE,IAAI;IAAEC,KAAK,EAAE;EAAG,CAAC,CAC5B;EACD,IAAI,EAAE,CACJ;IAAED,MAAM,EAAE,KAAK;IAAEC,KAAK,EAAE;EAAG,CAAC,EAC5B;IAAED,MAAM,EAAE,GAAG;IAAEC,KAAK,EAAE;EAAG,CAAC,EAC1B;IAAED,MAAM,EAAE,KAAK;IAAEC,KAAK,EAAE;EAAG,CAAC,EAC5B;IAAED,MAAM,EAAE,KAAK;IAAEC,KAAK,EAAE;EAAG,CAAC,EAC5B;IAAED,MAAM,EAAE,IAAI;IAAEC,KAAK,EAAE;EAAG,CAAC,CAC5B;EACD,IAAI,EAAE,CACJ;IAAED,MAAM,EAAE,KAAK;IAAEC,KAAK,EAAE;EAAG,CAAC,EAC5B;IAAED,MAAM,EAAE,GAAG;IAAEC,KAAK,EAAE;EAAG,CAAC,EAC1B;IAAED,MAAM,EAAE,KAAK;IAAEC,KAAK,EAAE;EAAG,CAAC,EAC5B;IAAED,MAAM,EAAE,KAAK;IAAEC,KAAK,EAAE;EAAG,CAAC,EAC5B;IAAED,MAAM,EAAE,IAAI;IAAEC,KAAK,EAAE;EAAG,CAAC,CAC5B;EACD,IAAI,EAAE,CACJ;IAAED,MAAM,EAAE,KAAK;IAAEC,KAAK,EAAE;EAAG,CAAC,EAC5B;IAAED,MAAM,EAAE,GAAG;IAAEC,KAAK,EAAE;EAAG,CAAC,EAC1B;IAAED,MAAM,EAAE,KAAK;IAAEC,KAAK,EAAE;EAAG,CAAC,EAC5B;IAAED,MAAM,EAAE,KAAK;IAAEC,KAAK,EAAE;EAAG,CAAC,EAC5B;IAAED,MAAM,EAAE,IAAI;IAAEC,KAAK,EAAE;EAAG,CAAC,CAC5B;EACD,IAAI,EAAE,CACJ;IAAED,MAAM,EAAE,KAAK;IAAEC,KAAK,EAAE;EAAI,CAAC,EAC7B;IAAED,MAAM,EAAE,GAAG;IAAEC,KAAK,EAAE;EAAI,CAAC,EAC3B;IAAED,MAAM,EAAE,KAAK;IAAEC,KAAK,EAAE;EAAI,CAAC,EAC7B;IAAED,MAAM,EAAE,KAAK;IAAEC,KAAK,EAAE;EAAI,CAAC,EAC7B;IAAED,MAAM,EAAE,KAAK;IAAEC,KAAK,EAAE;EAAG,CAAC,CAC7B;EACD,IAAI,EAAE,CACJ;IAAED,MAAM,EAAE,KAAK;IAAEC,KAAK,EAAE;EAAI,CAAC,EAC7B;IAAED,MAAM,EAAE,KAAK;IAAEC,KAAK,EAAE;EAAI,CAAC,EAC7B;IAAED,MAAM,EAAE,KAAK;IAAEC,KAAK,EAAE;EAAG,CAAC,EAC5B;IAAED,MAAM,EAAE,IAAI;IAAEC,KAAK,EAAE;EAAI,CAAC,EAC5B;IAAED,MAAM,EAAE,KAAK;IAAEC,KAAK,EAAE;EAAG,CAAC,CAC7B;EACD,IAAI,EAAE,CACJ;IAAED,MAAM,EAAE,KAAK;IAAEC,KAAK,EAAE;EAAI,CAAC,EAC7B;IAAED,MAAM,EAAE,KAAK;IAAEC,KAAK,EAAE;EAAI,CAAC,EAC7B;IAAED,MAAM,EAAE,KAAK;IAAEC,KAAK,EAAE;EAAG,CAAC,EAC5B;IAAED,MAAM,EAAE,GAAG;IAAEC,KAAK,EAAE;EAAG,CAAC,EAC1B;IAAED,MAAM,EAAE,KAAK;IAAEC,KAAK,EAAE;EAAG,CAAC,CAC7B;EACD,IAAI,EAAE,CACJ;IAAED,MAAM,EAAE,KAAK;IAAEC,KAAK,EAAE;EAAI,CAAC,EAC7B;IAAED,MAAM,EAAE,KAAK;IAAEC,KAAK,EAAE;EAAI,CAAC,EAC7B;IAAED,MAAM,EAAE,KAAK;IAAEC,KAAK,EAAE;EAAI,CAAC,EAC7B;IAAED,MAAM,EAAE,GAAG;IAAEC,KAAK,EAAE;EAAG,CAAC,EAC1B;IAAED,MAAM,EAAE,KAAK;IAAEC,KAAK,EAAE;EAAG,CAAC,CAC7B;EACD,IAAI,EAAE,CACJ;IAAED,MAAM,EAAE,KAAK;IAAEC,KAAK,EAAE;EAAI,CAAC,EAC7B;IAAED,MAAM,EAAE,KAAK;IAAEC,KAAK,EAAE;EAAI,CAAC,EAC7B;IAAED,MAAM,EAAE,KAAK;IAAEC,KAAK,EAAE;EAAG,CAAC,EAC5B;IAAED,MAAM,EAAE,KAAK;IAAEC,KAAK,EAAE;EAAG,CAAC,EAC5B;IAAED,MAAM,EAAE,GAAG;IAAEC,KAAK,EAAE;EAAG,CAAC,CAC3B;EACD,IAAI,EAAE,CACJ;IAAED,MAAM,EAAE,KAAK;IAAEC,KAAK,EAAE;EAAI,CAAC,EAC7B;IAAED,MAAM,EAAE,KAAK;IAAEC,KAAK,EAAE;EAAI,CAAC,EAC7B;IAAED,MAAM,EAAE,KAAK;IAAEC,KAAK,EAAE;EAAI,CAAC,EAC7B;IAAED,MAAM,EAAE,GAAG;IAAEC,KAAK,EAAE;EAAG,CAAC,EAC1B;IAAED,MAAM,EAAE,KAAK;IAAEC,KAAK,EAAE;EAAG,CAAC,CAC7B;EACD,IAAI,EAAE,CACJ;IAAED,MAAM,EAAE,KAAK;IAAEC,KAAK,EAAE;EAAI,CAAC,EAC7B;IAAED,MAAM,EAAE,KAAK;IAAEC,KAAK,EAAE;EAAI,CAAC,EAC7B;IAAED,MAAM,EAAE,KAAK;IAAEC,KAAK,EAAE;EAAI,CAAC,EAC7B;IAAED,MAAM,EAAE,IAAI;IAAEC,KAAK,EAAE;EAAI,CAAC,EAC5B;IAAED,MAAM,EAAE,KAAK;IAAEC,KAAK,EAAE;EAAG,CAAC,CAC7B;EACD,IAAI,EAAE,CACJ;IAAED,MAAM,EAAE,KAAK;IAAEC,KAAK,EAAE;EAAI,CAAC,EAC7B;IAAED,MAAM,EAAE,KAAK;IAAEC,KAAK,EAAE;EAAI,CAAC,EAC7B;IAAED,MAAM,EAAE,KAAK;IAAEC,KAAK,EAAE;EAAI,CAAC,EAC7B;IAAED,MAAM,EAAE,KAAK;IAAEC,KAAK,EAAE;EAAI,CAAC,EAC7B;IAAED,MAAM,EAAE,GAAG;IAAEC,KAAK,EAAE;EAAG,CAAC,CAC3B;EACD,IAAI,EAAE,CACJ;IAAED,MAAM,EAAE,KAAK;IAAEC,KAAK,EAAE;EAAI,CAAC,EAC7B;IAAED,MAAM,EAAE,GAAG;IAAEC,KAAK,EAAE;EAAG,CAAC,EAC1B;IAAED,MAAM,EAAE,KAAK;IAAEC,KAAK,EAAE;EAAG,CAAC,EAC5B;IAAED,MAAM,EAAE,IAAI;IAAEC,KAAK,EAAE;EAAG,CAAC,EAC3B;IAAED,MAAM,EAAE,IAAI;IAAEC,KAAK,EAAE;EAAG,CAAC;AAE/B,CAAC","ignoreList":[]},"metadata":{},"sourceType":"module","externalDependencies":[]}